[{"newspaper":"New York Independent", "location":"New York, NY", "ethnicPeriodical":"", "lat":40.7648, "lon":-73.9808},{"newspaper":"Cincinnati Enquirer", "location":"Cincinnati, OH", "ethnicPeriodical":"", "lat":39.1015, "lon":-84.5125},{"newspaper":"Hobart Mercury", "location":"Hobart, Tazmania", "ethnicPeriodical":"", "lat":-42.8825, "lon":147.3281},{"newspaper":"Boston Journal", "location":"Boston, MA", "ethnicPeriodical":"", "lat":42.3605, "lon":-71.0596},{"newspaper":"New York Sun", "location":"New York, NY", "ethnicPeriodical":"", "lat":40.7648, "lon":-73.9808},{"newspaper":"Chicago Times", "location":"Chicago, IL", "ethnicPeriodical":"", "lat":41.8756, "lon":-87.6244},{"newspaper":"Texas Siftings", "location":"Austin, TX", "ethnicPeriodical":"", "lat":30.2711, "lon":-97.7437},{"newspaper":"Puck", "location":"New York, NY", "ethnicPeriodical":"", "lat":40.7648, "lon":-73.9808},{"newspaper":"Lewistown", "location":"Lewistown, MT", "ethnicPeriodical":"", "lat":47.0625, "lon":-109.4282},{"newspaper":"Philadelphia Call", "location":"Philadelphia, PA", "ethnicPeriodical":"", "lat":40.0115, "lon":-75.1327},{"newspaper":"Boston Transcript", "location":"Boston, MA", "ethnicPeriodical":"", "lat":42.3605, "lon":-71.0596},{"newspaper":"Chicago Herald", "location":"Chicago, IL", "ethnicPeriodical":"", "lat":41.8756, "lon":-87.6244},{"newspaper":"New York Tribune", "location":"Manhattan, NY", "ethnicPeriodical":"", "lat":40.7903, "lon":-73.9597},{"newspaper":"New York Herald", "location":"New York, NY", "ethnicPeriodical":"", "lat":40.7648, "lon":-73.9808},{"newspaper":"Philadelphia Press", "location":"Philadelphia, PA", "ethnicPeriodical":"", "lat":40.0115, "lon":-75.1327},{"newspaper":"Philadelphia North American", "location":"Philadelphia, PA", "ethnicPeriodical":"", "lat":40.0115, "lon":-75.1327},{"newspaper":"St. Louis Republican", "location":"St. Louis, MO", "ethnicPeriodical":"", "lat":38.63, "lon":-90.19},{"newspaper":"Troy Times", "location":"Troy, NY", "ethnicPeriodical":"", "lat":42.7284, "lon":-73.6918},{"newspaper":"Boston Globe", "location":"Boston, MA", "ethnicPeriodical":"", "lat":42.3605, "lon":-71.0596},{"newspaper":"Boston Post", "location":"Boston, MA", "ethnicPeriodical":"", "lat":42.3605, "lon":-71.0596},{"newspaper":"Chicago Tribune", "location":"Chicago, IL", "ethnicPeriodical":"", "lat":41.8756, "lon":-87.6244},{"newspaper":"Whitehall Times", "location":"Whitehall, NY", "ethnicPeriodical":"", "lat":42.6468, "lon":-73.7988},{"newspaper":"Chicago Sun", "location":"Chicago, IL", "ethnicPeriodical":"", "lat":41.8756, "lon":-87.6244},{"newspaper":"N.O. Picayune", "location":"New Orleans, LA", "ethnicPeriodical":"", "lat":29.9499, "lon":-90.0701},{"newspaper":"Norristown", "location":"Norristown, PA", "ethnicPeriodical":"", "lat":40.1215, "lon":-75.3399},{"newspaper":"Brooklyn Eagle", "location":"Brooklyn, NY", "ethnicPeriodical":"", "lat":40.6501, "lon":-73.9496},{"newspaper":"Kentucky State Journal", "location":"Newport, KY", "ethnicPeriodical":"", "lat":39.0889, "lon":-84.492},{"newspaper":"Commercial Gazette", "location":"Cincinnati, OH", "ethnicPeriodical":"", "lat":39.1015, "lon":-84.5125},{"newspaper":"Boston Beacon", "location":"Boston, MA", "ethnicPeriodical":"", "lat":42.3605, "lon":-71.0596},{"newspaper":"London Telegraph", "location":"London, England", "ethnicPeriodical":"", "lat":51.50722, "lon":-0.1275},{"newspaper":"Boston Herald", "location":"Boston, MA", "ethnicPeriodical":"", "lat":42.3605, "lon":-71.0596}]